[
  {
    "name": "양지말화로구이",
    "category": "restaurant",
    "address": "강원특별자치도 홍천군 홍천읍 양지말길 17-4",
    "lat": 37.65951,
    "lng": 127.83124,
    "description": "30년 넘게 이어온 홍천의 고추장삼겹살 화로구이 명소예요. 달큰한 고추장 양념 삼겹살을 숯불 화로에 구워 먹는 집으로 맛있는 녀석들 등 방송에도 여러 번 나왔어요. 서울에서 홍천 들어가는 길목이라 라이딩 중 들르기 좋아요.",
    "tags": [
      "맛집",
      "홍천",
      "화로구이"
    ]
  },
  {
    "name": "고구려돼지갈비",
    "category": "restaurant",
    "address": "경기 광주시 양촌길 145",
    "lat": 37.3709,
    "lng": 127.25013,
    "description": "광주 토박이들은 다 아는 집으로 통하는 양벌동 돼지갈비집이에요. 점심특선도 운영해 밥 때 들르기 부담 없어요. 남한산성, 퇴촌 등 광주 라이딩 코스와 묶어 밥집으로 삼기 좋아요.",
    "tags": [
      "맛집",
      "광주",
      "돼지갈비"
    ]
  },
  {
    "name": "엄지매운탕",
    "category": "restaurant",
    "address": "경기 광주시 퇴촌면 천진암로 336",
    "lat": 37.47173,
    "lng": 127.30938,
    "description": "메뉴가 메기매운탕과 잡고기매운탕 딱 두 가지뿐인 퇴촌의 민물매운탕집이에요. 국내산 생물 고기만 고집하는 집으로 알려져 있어요. 팔당 지나 퇴촌 천진암 방면 라이딩 때 든든한 한 끼로 좋아요.",
    "tags": [
      "맛집",
      "퇴촌",
      "매운탕"
    ]
  },
  {
    "name": "유명숯불닭갈비",
    "category": "restaurant",
    "address": "경기 가평군 설악면 신천중앙로 15",
    "lat": 37.67177,
    "lng": 127.4898,
    "description": "국내산 닭만 쓰는 가평 설악면의 숯불닭갈비 전문점이에요. 숯불닭갈비 단일 메뉴에 메밀막국수와 감자전을 곁들여 먹는 구성이에요. 청평 지나 유명산 방면으로 넘어가는 라이딩 중 허기 달래기 좋아요.",
    "tags": [
      "맛집",
      "가평",
      "닭갈비"
    ]
  },
  {
    "name": "하우스베이커리",
    "category": "cafe",
    "address": "경기 양평군 서종면 북한강로 684",
    "lat": 37.59881,
    "lng": 127.35329,
    "description": "잔디 마당을 낀 한옥 세 동으로 이뤄진 서종의 베이커리 카페예요. 제과기능장이 굽는 빵으로 블루리본에 여러 해 연속 올랐어요. 북한강로 라이딩 중 빵과 커피로 쉬어 가기 좋아요.",
    "tags": [
      "카페",
      "서종",
      "한옥",
      "베이커리"
    ]
  },
  {
    "name": "핏제리아 루카네",
    "category": "restaurant",
    "address": "경기 양평군 강상면 강남로 802",
    "lat": 37.49136,
    "lng": 127.46701,
    "description": "나폴리 피자학교 마스터 과정을 거친 셰프가 참나무 장작 화덕에 피자를 굽는 양평의 나폴리피자집이에요. 생활의 달인에 소개되고 블루리본에도 올랐어요. 남한강변 양평 라이딩 코스와 잘 어울려요.",
    "tags": [
      "맛집",
      "양평",
      "화덕피자"
    ]
  },
  {
    "name": "금학칼국수",
    "category": "restaurant",
    "address": "강원특별자치도 평창군 봉평면 기풍로 166-1",
    "lat": 37.61722,
    "lng": 128.37728,
    "description": "메밀의 고장 봉평에서 장칼국수로 이름난 집이에요. 콩나물밥과 수제 메밀 검은콩국수도 있고 재료가 떨어지면 일찍 문을 닫아요. 평창 봉평 방면 라이딩 때 점심 코스로 좋아요.",
    "tags": [
      "맛집",
      "봉평",
      "칼국수"
    ]
  },
  {
    "name": "왈츠와닥터만",
    "category": "cafe",
    "address": "경기 남양주시 조안면 북한강로 856-37",
    "lat": 37.59182,
    "lng": 127.33829,
    "description": "북한강변에 자리한 국내 첫 커피 전문 박물관을 겸한 곳이에요. 1층은 레스토랑, 위층은 커피박물관으로 꾸며져 커피 역사까지 구경할 수 있어요. 북한강로 라이딩 클래식 코스 위라 오가며 들르기 좋아요.",
    "tags": [
      "카페",
      "북한강",
      "커피박물관"
    ]
  },
  {
    "name": "브리끄",
    "category": "cafe",
    "address": "경기 남양주시 화도읍 북한강로 1696-2",
    "lat": 37.65852,
    "lng": 127.37338,
    "description": "고택 세 동을 고쳐 만든 북한강변 벽돌 건물의 베이커리 카페예요. 너른 잔디 정원과 강뷰로 인기가 많고 시그니처 라떼가 대표 메뉴예요. 북한강로 카페 투어 라이딩에 넣기 좋은 곳이에요.",
    "tags": [
      "카페",
      "북한강",
      "베이커리"
    ]
  },
  {
    "name": "아유스페이스",
    "category": "cafe",
    "address": "경기 남양주시 화도읍 북한강로1462번길 71",
    "lat": 37.63582,
    "lng": 127.35813,
    "description": "별장으로 쓰이던 넓은 부지를 고쳐 만든 북한강변 복합문화공간 카페예요. 노출 콘크리트 원형 건물이라 어느 자리에서든 중정이나 북한강이 보여요. 북한강로 라이딩 중 뷰 좋은 쉼터로 삼기 좋아요.",
    "tags": [
      "카페",
      "북한강",
      "대형카페"
    ]
  },
  {
    "name": "물의정원",
    "category": "viewpoint",
    "address": "경기 남양주시 조안면 북한강로 398",
    "lat": 37.55686,
    "lng": 127.31499,
    "description": "북한강변을 따라 조성된 수변공원으로 5월엔 꽃양귀비, 가을엔 노랑코스모스가 강변을 물들여요. 뱃나들이교와 액자 포토존이 유명하고 무료로 상시 개방돼요. 북한강 라이딩 중 잠깐 걷기 좋은 곳이에요.",
    "tags": [
      "뷰포인트",
      "남양주",
      "북한강",
      "산책"
    ]
  },
  {
    "name": "다산생태공원",
    "category": "viewpoint",
    "address": "경기 남양주시 조안면 다산로 767",
    "lat": 37.51431,
    "lng": 127.2983,
    "description": "팔당호 수변을 따라 산책로와 데크가 이어지는 생태공원이에요. 소내나루 전망대에서 팔당호가 한눈에 들어오고 여름 연꽃과 가을 억새가 볼만해요. 팔당에서 두물머리로 가는 강변 라이딩과 묶기 좋아요.",
    "tags": [
      "뷰포인트",
      "남양주",
      "팔당호"
    ]
  },
  {
    "name": "두물머리",
    "category": "viewpoint",
    "address": "경기 양평군 양서면 양수리",
    "lat": 37.53474,
    "lng": 127.31789,
    "description": "북한강과 남한강이 만나는 자리로 물안개, 일출, 수령 400년 느티나무가 어우러진 명소예요. 한국관광 100선에 꼽힌 곳으로 입장료와 주차 모두 무료예요. 팔당 지나 양수리로 이어지는 라이딩의 단골 반환점이에요.",
    "tags": [
      "뷰포인트",
      "양평",
      "일출"
    ]
  },
  {
    "name": "용문사",
    "category": "viewpoint",
    "address": "경기 양평군 용문면 용문산로 782",
    "lat": 37.55019,
    "lng": 127.57082,
    "description": "수령 1100년으로 우리나라에서 가장 오래된 은행나무가 있는 양평의 천년 고찰이에요. 천연기념물인 이 나무는 높이가 40m를 넘어 늦가을 노랗게 물들 때 장관이에요. 6번 국도 타고 양평 지나 닿는 라이딩 종착지로 좋아요.",
    "tags": [
      "뷰포인트",
      "양평",
      "은행나무",
      "사찰"
    ]
  },
  {
    "name": "그리팅맨",
    "category": "viewpoint",
    "address": "경기 연천군 군남면 옥계리 832",
    "lat": 38.12238,
    "lng": 127.03535,
    "description": "옥녀봉 정상에서 북쪽을 향해 15도로 인사하는 높이 10m 조형물이에요. 유영호 작가의 작품으로 존중과 평화의 뜻을 담았고 임진강 일대가 내려다보이는 일몰 명소예요. 연천 임진강 라이딩의 목적지로 삼을 만해요.",
    "tags": [
      "뷰포인트",
      "연천",
      "일몰",
      "조형물"
    ]
  },
  {
    "name": "산정호수",
    "category": "viewpoint",
    "address": "경기 포천시 영북면 산정리 227",
    "lat": 38.07059,
    "lng": 127.32039,
    "description": "명성산 자락에 안긴 포천의 대표 호수예요. 물 위를 걷는 듯한 수변 데크 둘레길이 있고 가을엔 명성산 억새밭이 장관이에요. 포천 방면 라이딩의 단골 목적지로 꼽혀요.",
    "tags": [
      "뷰포인트",
      "포천",
      "호수",
      "억새"
    ]
  },
  {
    "name": "소금산 출렁다리",
    "category": "viewpoint",
    "address": "강원특별자치도 원주시 지정면 간현리 산 116-1",
    "lat": 37.36789,
    "lng": 127.82514,
    "description": "간현관광지 소금산 절벽 사이에 놓인 길이 200m, 높이 100m의 출렁다리예요. 404m 울렁다리와 잔도, 케이블카로 이어져 하늘길을 걷는 기분을 낼 수 있어요. 원주 간현 방면 라이딩과 묶기 좋아요.",
    "tags": [
      "뷰포인트",
      "원주",
      "출렁다리"
    ]
  },
  {
    "name": "소양강스카이워크",
    "category": "viewpoint",
    "address": "강원특별자치도 춘천시 영서로 2663",
    "lat": 37.89334,
    "lng": 127.72341,
    "description": "소양강 위로 놓인 바닥이 투명 유리인 다리를 걸어 보는 춘천 명소예요. 소양강처녀상 바로 옆이라 함께 둘러보기 좋고 끝의 원형 전망대에서 강 풍경이 시원하게 열려요. 춘천 라이딩 인증샷 코스로 제격이에요.",
    "tags": [
      "뷰포인트",
      "춘천",
      "스카이워크"
    ]
  },
  {
    "name": "통나무집닭갈비",
    "category": "restaurant",
    "address": "강원특별자치도 춘천시 신북읍 신샘밭로 763",
    "lat": 37.93311,
    "lng": 127.79324,
    "description": "소양강댐 가는 길목에 자리한 춘천의 대표 닭갈비집 중 하나예요. 철판 본점과 숯불 2호점을 두고 있고 맛있는 녀석들에도 나왔어요. 춘천 소양강 라이딩 후 닭갈비로 마무리하기 좋아요.",
    "tags": [
      "맛집",
      "춘천",
      "닭갈비"
    ]
  },
  {
    "name": "북악팔각정",
    "category": "viewpoint",
    "address": "서울 종로구 북악산로 267",
    "lat": 37.601590273158,
    "lng": 126.980658058024,
    "description": "서울 라이더의 클래식 코스인 북악스카이웨이 정상에 자리한 전망 쉼터예요. 와인딩을 오르면 팔각정 앞으로 도심과 북한산 전경이 한눈에 펼쳐져요. 해 질 무렵 야경 명소로도 유명해요.",
    "tags": [
      "서울",
      "북악스카이웨이",
      "야경",
      "와인딩"
    ]
  },
  {
    "name": "행주산성",
    "category": "viewpoint",
    "address": "경기 고양시 덕양구 행주로15번길 89",
    "lat": 37.596101261945115,
    "lng": 126.8287096301388,
    "description": "자유로 초입 덕양산에 자리한 행주대첩의 현장이에요. 강변 라이딩 중 들르기 좋고 정상에 오르면 한강과 북한산이 시원하게 펼쳐져요. 메타세쿼이아가 늘어선 진입로 산책은 덤이에요.",
    "tags": [
      "고양",
      "자유로",
      "한강",
      "역사유적"
    ]
  },
  {
    "name": "오두산통일전망대",
    "category": "viewpoint",
    "address": "경기 파주시 탄현면 필승로 369",
    "lat": 37.773276135695816,
    "lng": 126.67722749484203,
    "description": "자유로를 끝까지 달리면 닿는 반환점이에요. 한강과 임진강이 만나는 합수부 언덕에 서 있어 전망대에서 강 건너 북한 땅이 손에 잡힐 듯 보여요. 1992년 문을 연 뒤 2천만 명 넘게 다녀간 안보 관광 명소예요.",
    "tags": [
      "파주",
      "자유로",
      "전망대",
      "임진강"
    ]
  },
  {
    "name": "헤이리예술마을",
    "category": "viewpoint",
    "address": "경기 파주시 탄현면 헤이리마을길 70-21",
    "lat": 37.788040908736896,
    "lng": 126.69930440147027,
    "description": "예술인들이 직접 조성한 문화예술마을이에요. 갤러리와 박물관, 개성 있는 건축과 카페가 골목마다 이어져 반나절이 금방 가요. 자유로 라이딩 후 오두산통일전망대와 묶어 들르기 좋아요.",
    "tags": [
      "파주",
      "예술마을",
      "갤러리",
      "산책"
    ]
  },
  {
    "name": "카페드220볼트",
    "category": "cafe",
    "address": "강원특별자치도 춘천시 동내면 금촌로 107-27",
    "lat": 37.856970834613,
    "lng": 127.78378622387,
    "description": "언덕 위에 자리한 춘천 최대 규모의 스페셜티 커피 플래그십이에요. 3층 높이 통유리 아래에서 직접 로스팅한 커피와 천연발효종 빵을 즐길 수 있어요. 주차장이 넓어 춘천 라이딩의 목적지로 삼기 좋아요.",
    "tags": [
      "춘천",
      "스페셜티커피",
      "베이커리",
      "대형카페"
    ]
  },
  {
    "name": "아침고요수목원",
    "category": "viewpoint",
    "address": "경기 가평군 상면 수목원로 427",
    "lat": 37.74300402014755,
    "lng": 127.35166124525132,
    "description": "축령산 자락 10만 평에 조성된 원예 수목원이에요. 하경정원을 비롯한 20여 개 주제정원에 4천5백여 종의 식물이 자라 계절마다 풍경이 바뀌어요. 가평 라이딩 길에 쉬어 가기 좋은 정원 산책 코스예요.",
    "tags": [
      "가평",
      "수목원",
      "정원",
      "산책"
    ]
  },
  {
    "name": "비발디파크",
    "category": "viewpoint",
    "address": "강원특별자치도 홍천군 서면 한치골길 264",
    "lat": 37.64508331765885,
    "lng": 127.68202103965271,
    "description": "홍천 서면 팔봉산 방면에 자리한 사계절 복합리조트예요. 겨울엔 스키장, 여름엔 워터파크 오션월드로 붐비는 홍천의 대표 명소예요. 홍천강 물줄기를 따라 달리는 코스의 반환점 삼기 좋아요.",
    "tags": [
      "홍천",
      "리조트",
      "홍천강",
      "팔봉산"
    ]
  },
  {
    "name": "산일리오",
    "category": "cafe",
    "address": "강원특별자치도 횡성군 둔내면 경강로 5339",
    "lat": 37.5649199134703,
    "lng": 128.225119329249,
    "description": "6번 국도 경강로 변에 자리한 초대형 정원 카페예요. 정원 한가운데 인공 폭포가 흐르고 루프탑과 야외 좌석이 넉넉해 계절마다 다른 운치가 있어요. 둔내를 지나 강릉 방면으로 달릴 때 쉬어 가기 좋아요.",
    "tags": [
      "횡성",
      "둔내",
      "정원카페",
      "6번국도"
    ]
  },
  {
    "name": "산들",
    "category": "cafe",
    "address": "강원특별자치도 횡성군 공근면 경강로신촌1길 50",
    "lat": 37.5175776929878,
    "lng": 127.956725867429,
    "description": "경강로에서 마을길로 살짝 들어가면 나오는 한적한 브런치 카페예요. 잔디 앞마당에 층고 높은 실내가 여유롭고 1층은 카페, 2층에선 파스타 같은 식사가 돼요. 횡성 라이딩 중 끼니와 커피를 한 번에 해결하기 좋아요.",
    "tags": [
      "횡성",
      "브런치",
      "베이커리",
      "한적함"
    ]
  },
  {
    "name": "충주호",
    "category": "viewpoint",
    "address": "충북 충주시 동량면 사기리 321",
    "lat": 36.98001682844732,
    "lng": 128.08959186825095,
    "description": "충주댐이 남한강을 막아 만든 호수로 내륙의 바다라 불려요. 호수가 충주에서 제천, 단양까지 이어져 국내 손꼽히는 호반 드라이브 코스로 통해요. 동량면 호반 길을 따라 달리면 섬처럼 뜬 산자락 풍경이 펼쳐져요.",
    "tags": [
      "충주",
      "남한강",
      "호반드라이브",
      "와인딩"
    ]
  },
  {
    "name": "티하우스에덴",
    "category": "cafe",
    "address": "경기 이천시 마장면 서이천로 449-79",
    "lat": 37.261833026050844,
    "lng": 127.39543673493581,
    "description": "에덴파라다이스호텔 정원에 자리한 온실 형태의 홍차 전문 카페예요. 유리 천장 아래 큰 식물들이 우거져 실내에서도 계절이 느껴져요. 대표 메뉴인 밀크티와 스콘을 곁들여 이천 근교 라이딩의 쉼터로 삼기 좋아요.",
    "tags": [
      "이천",
      "홍차",
      "온실카페",
      "정원"
    ]
  },
  {
    "name": "세계주류마켓",
    "category": "rest_stop",
    "address": "강원특별자치도 춘천시 동내면 순환대로 632",
    "lat": 37.83946,
    "lng": 127.76244,
    "description": "와인부터 위스키, 세계 맥주까지 갖춘 국내 최대급 창고형 주류 할인마트예요. 애주가 사이에서 성지로 통하는 곳이라 구경만 해도 시간이 훌쩍 가요. 카페드220볼트와 같은 동내면이라 춘천 라이딩 마무리에 들러 한 병 챙겨 가기 좋아요.",
    "tags": [
      "춘천",
      "주류마켓",
      "창고형",
      "쇼핑"
    ]
  },
  {
    "name": "더티트렁크",
    "category": "cafe",
    "address": "경기 파주시 지목로 114",
    "lat": 37.72838,
    "lng": 126.703,
    "description": "공장 콘셉트의 인더스트리얼 인테리어로 유명한 파주 대표 초대형 카페예요. 높은 천장과 통창 아래에서 시그니처 더티블랙라떼와 베이커리, 수제버거 같은 브런치 메뉴를 즐길 수 있어요. 파주출판단지에 있어 자유로 타고 헤이리 방면으로 달릴 때 들르기 좋아요.",
    "tags": [
      "파주",
      "대형카페",
      "브런치",
      "인더스트리얼"
    ]
  },
  {
    "name": "문지리535",
    "category": "cafe",
    "address": "경기 파주시 탄현면 자유로 3902-10",
    "lat": 37.83005,
    "lng": 126.71798,
    "description": "야자수와 열대식물로 채운 온실 콘셉트의 3층 대형 베이커리 카페예요. 3면 통창 너머로 임진강변 평야가 펼쳐지고 흑임자 크림 라떼와 쪽파 스콘이 시그니처예요. 자유로 바로 옆이라 라이딩 중 쉬어 가기 좋은 위치예요.",
    "tags": [
      "파주",
      "자유로",
      "대형카페",
      "식물원카페"
    ]
  },
  {
    "name": "옥천냉면 황해식당",
    "category": "restaurant",
    "address": "경기 양평군 옥천면 고읍로 140",
    "lat": 37.5197745771543,
    "lng": 127.457868856032,
    "description": "양평 6번 국도 라이딩의 정석 코스에 있는 3대째 황해도식 냉면집이에요. 굵은 면발 물냉면에 편육과 완자를 곁들이는 게 정석 조합이에요. 주차장이 넓고 평평해서 바이크 여러 대가 함께 서기 좋아요.",
    "tags": [
      "맛집",
      "양평",
      "냉면"
    ]
  },
  {
    "name": "미사리밀빛초계국수 본점",
    "category": "restaurant",
    "address": "경기 하남시 미사대로 608",
    "lat": 37.5532243168856,
    "lng": 127.210930078098,
    "description": "팔당과 양평 방면 라이딩 코스 초입인 하남 미사에 있는 초계국수집이에요. 새콤하게 말아낸 초계국수와 초계비빔국수가 대표 메뉴예요. 바이크와 자전거 타고 오는 손님이 많은 곳으로 알려져 있어요.",
    "tags": [
      "맛집",
      "하남",
      "초계국수"
    ]
  },
  {
    "name": "망향비빔국수 본점",
    "category": "restaurant",
    "address": "경기 연천군 청산면 궁평로 5",
    "lat": 38.023879993402,
    "lng": 127.109307909138,
    "description": "포천을 지나 연천, 한탄강 방면으로 달리는 라이딩에서 단골로 들르는 원조 비빔국수집이에요. 1968년부터 이어온 새콤달콤한 비빔국수에 만두를 곁들여 먹어요. 주차장이 넓어 단체 라이딩 집결에도 좋아요.",
    "tags": [
      "맛집",
      "연천",
      "비빔국수"
    ]
  },
  {
    "name": "김앤김",
    "category": "restaurant",
    "address": "경기 안산시 단원구 대선로 384",
    "lat": 37.2398485237274,
    "lng": 126.573017044657,
    "description": "시화방조제 건너 대부도 라이딩에서 라이더들이 즐겨 찾는 수제 왕돈까스집이에요. 바삭한 대왕돈까스에 즉석 떡볶이나 냉면을 곁들여 먹어요. 주차장이 넓지만 웨이팅이 있는 편이라 오픈 시간에 맞추면 좋아요.",
    "tags": [
      "맛집",
      "대부도",
      "돈까스"
    ]
  },
  {
    "name": "원조이동김미자할머니갈비",
    "category": "restaurant",
    "address": "경기 포천시 이동면 화동로 2087",
    "lat": 38.0341185492008,
    "lng": 127.366138228895,
    "description": "백운계곡과 광덕고개로 이어지는 포천 라이딩 길목, 이동갈비촌의 원조로 꼽히는 집이에요. 참숯에 굽는 수제 이동갈비를 50년 넘게 이어오고 있어요. 주차장이 아주 넓어 여럿이 함께 들르기 좋아요.",
    "tags": [
      "맛집",
      "포천",
      "이동갈비"
    ]
  },
  {
    "name": "샘밭막국수",
    "category": "restaurant",
    "address": "강원 춘천시 신북읍 신샘밭로 644",
    "lat": 37.9295171303137,
    "lng": 127.781207132274,
    "description": "소양강댐과 양구 방면 길목의 샘밭 삼거리에서 1970년부터 이어온 백년가게 막국수집이에요. 거친 메밀면과 슴슴한 양념의 순메밀 막국수가 특징이에요. 춘천 라이딩에서 가볍게 한 그릇 하기 좋아요.",
    "tags": [
      "맛집",
      "춘천",
      "막국수"
    ]
  },
  {
    "name": "용바위식당",
    "category": "restaurant",
    "address": "강원 인제군 북면 진부령로 107",
    "lat": 38.2238871092577,
    "lng": 128.367607201706,
    "description": "속초행 44번, 46번 국도에서 미시령 옛길과 진부령으로 갈라지는 용대리 황태마을의 대표 노포예요. 황태해장국으로 든든하게 속을 채우고 고개를 넘기 좋아요. 황태구이 정식도 유명해요.",
    "tags": [
      "맛집",
      "인제",
      "황태"
    ]
  },
  {
    "name": "단천식당",
    "category": "restaurant",
    "address": "강원 속초시 아바이마을길 17",
    "lat": 38.202611431939,
    "lng": 128.593676040652,
    "description": "미시령을 넘어 속초로 마무리하는 라이딩에서 들르기 좋은 아바이마을 순대 노포예요. 속이 꽉 찬 아바이순대와 오징어순대, 순대국밥이 대표 메뉴예요. 모터사이클 매거진 투어 코스에도 소개됐어요.",
    "tags": [
      "맛집",
      "속초",
      "아바이순대"
    ]
  },
  {
    "name": "거북이횟집곰치국",
    "category": "restaurant",
    "address": "강원 동해시 일출로 177",
    "lat": 37.5582817992179,
    "lng": 129.120839649944,
    "description": "7번 국도 동해안 라이딩의 묵호 구간에서 들르는 곰치국 전문점이에요. 아침 7시부터 문을 열어 시원한 곰치국과 생선구이로 속을 풀기 좋아요. 모터사이클 매거진 강원 투어 코스 맛집으로 소개됐어요.",
    "tags": [
      "맛집",
      "동해",
      "곰치국"
    ]
  },
  {
    "name": "우리식당",
    "category": "restaurant",
    "address": "경상남도 남해군 삼동면 동부대로1876번길 7",
    "lat": 34.8316497389802,
    "lng": 128.000704823488,
    "description": "남해 물미해안도로와 독일마을 코스를 도는 라이더들이 지족 창선교 앞에서 들르는 멸치쌈밥 원조집이에요. 1978년부터 이어온 멸치쌈밥과 멸치회무침이 대표 메뉴고 식당 앞 무료 주차가 가능해요.",
    "tags": [
      "맛집",
      "남해",
      "멸치쌈밥"
    ]
  },
  {
    "name": "여여식당",
    "category": "restaurant",
    "address": "경상남도 하동군 하동읍 경서대로 92",
    "lat": 35.0643903722141,
    "lng": 127.746621769089,
    "description": "섬진강 19번 국도와 하동 벚꽃길을 달리다 하동읍에서 들르는 재첩국 명가예요. 섬진강 재첩만 쓰는 진한 재첩국이 대표 메뉴고, 아침 8시부터 열어 출발 전 든든히 먹기 좋아요.",
    "tags": [
      "맛집",
      "하동",
      "재첩국"
    ]
  },
  {
    "name": "혜성식당",
    "category": "restaurant",
    "address": "경상남도 하동군 화개면 화개로 48",
    "lat": 35.1925381571736,
    "lng": 127.624640850178,
    "description": "하동 십리벚꽃길과 화개장터 코스에서 들르는 참게탕 노포예요. 월간모터바이크 투어 기사에도 등장한 집으로, 참게탕과 재첩국이 대표 메뉴예요. 연중무휴라 라이딩 일정 잡기 편해요.",
    "tags": [
      "맛집",
      "하동",
      "참게탕"
    ]
  },
  {
    "name": "새집추어탕",
    "category": "restaurant",
    "address": "전북특별자치도 남원시 요천로 1397",
    "lat": 35.4004448888697,
    "lng": 127.375150129427,
    "description": "정령치와 성삼재 와인딩 후 남원 시내로 내려와 찾기 좋은 추어탕거리 원조 노포예요. 1959년부터 이어온 걸쭉한 남원식 추어탕과 미꾸라지 깻잎말이튀김이 대표 메뉴고 무료 주차장이 있어요.",
    "tags": [
      "맛집",
      "남원",
      "추어탕"
    ]
  },
  {
    "name": "달궁식당",
    "category": "restaurant",
    "address": "전북특별자치도 남원시 산내면 지리산로 311",
    "lat": 35.3508687822595,
    "lng": 127.55384941287,
    "description": "지리산 정령치와 성삼재 사이 달궁마을에 있어 와인딩 중간에 식사하기 딱 좋은 위치예요. 산채비빔밥과 토종닭백숙, 흑돼지구이가 대표 메뉴고 여름엔 계곡 옆에서 쉬어 가기 좋아요.",
    "tags": [
      "맛집",
      "지리산",
      "산채"
    ]
  },
  {
    "name": "국일식당",
    "category": "restaurant",
    "address": "전라남도 보성군 벌교읍 태백산맥길 18-1",
    "lat": 34.8439250983473,
    "lng": 127.343649604588,
    "description": "순천만에서 보성으로 이어지는 남도 코스의 벌교 꼬막거리에서 1952년부터 한자리를 지킨 노포예요. 꼬막전과 된장꼬막탕까지 차려지는 꼬막정식이 대표 메뉴고 아침 8시부터 문을 열어요.",
    "tags": [
      "맛집",
      "벌교",
      "꼬막정식"
    ]
  },
  {
    "name": "삼대광양불고기집",
    "category": "restaurant",
    "address": "전라남도 광양시 광양읍 서천1길 52",
    "lat": 34.9702439322872,
    "lng": 127.578992347921,
    "description": "섬진강 하구와 남해안 코스가 만나는 광양에서 90년 넘게 이어온 광양불고기 노포예요. 숯불에 바로 구워 내는 달큰한 불고기가 대표 메뉴로, 월간모터바이크 전남 투어 기사에도 소개된 집이에요.",
    "tags": [
      "맛집",
      "광양",
      "불고기"
    ]
  },
  {
    "name": "변산명인바지락죽",
    "category": "restaurant",
    "address": "전북특별자치도 부안군 변산면 변산해변로 794",
    "lat": 35.6645199398268,
    "lng": 126.51338573874,
    "description": "채석강과 격포로 이어지는 변산해변로 코스 중간에 있는 바지락죽 명가예요. 인삼과 녹두를 넣어 끓인 바지락죽과 바지락칼국수가 대표 메뉴고, 주차장이 넓어 단체 라이딩도 부담 없어요.",
    "tags": [
      "맛집",
      "변산",
      "바지락죽"
    ]
  },
  {
    "name": "저곡식당",
    "category": "restaurant",
    "address": "충청남도 금산군 제원면 금강로 286",
    "lat": 36.110281606119,
    "lng": 127.56512298611,
    "description": "대전에서 금강 물길 따라 무주 방면으로 달리는 금강로 변의 인삼어죽 원조 노포예요. 민물고기를 오래 고아 낸 인삼어죽과 도리뱅뱅이가 대표 메뉴고 앞마당 주차 공간이 넉넉해요.",
    "tags": [
      "맛집",
      "금산",
      "어죽"
    ]
  },
  {
    "name": "선광집",
    "category": "restaurant",
    "address": "충청북도 옥천군 청산면 지전1길 26",
    "lat": 36.3460887843818,
    "lng": 127.792495434344,
    "description": "대청호에서 보은을 거쳐 청산으로 이어지는 충청 내륙 코스에서 만나는 1962년 원조 생선국수집이에요. 생선국수와 도리뱅뱅이가 대표 메뉴고, 재료가 떨어지면 일찍 닫으니 서두르는 게 좋아요.",
    "tags": [
      "맛집",
      "옥천",
      "생선국수"
    ]
  },
  {
    "name": "큰마을영양굴밥",
    "category": "restaurant",
    "address": "충청남도 서산시 부석면 간월도1길 65",
    "lat": 36.6095136526846,
    "lng": 126.416452142243,
    "description": "서산 방조제와 천수만 해안을 달려 간월암 앞에서 쉬어 갈 때 들르는 굴 요리 전문점이에요. 간월도 자연산 굴로 지은 영양굴밥과 어리굴젓이 대표 메뉴인 백년가게로, 전용 주차장이 있어요.",
    "tags": [
      "맛집",
      "서산",
      "굴밥"
    ]
  },
  {
    "name": "주차장식당",
    "category": "restaurant",
    "address": "충청북도 괴산군 괴산읍 읍내로 282",
    "lat": 36.8082967449085,
    "lng": 127.794397753187,
    "description": "속리산과 문경 방면 충청 내륙 코스의 거점 괴산읍에서 50년 넘게 올갱이해장국 하나만 내온 노포예요. 괴강 올갱이로 끓인 해장국이 유일한 메뉴로, 라이딩 중 속 데우기에 그만이에요.",
    "tags": [
      "맛집",
      "괴산",
      "올갱이해장국"
    ]
  },
  {
    "name": "새재할매집",
    "category": "restaurant",
    "address": "경상북도 문경시 문경읍 새재로 922",
    "lat": 36.7608862325407,
    "lng": 128.077032542814,
    "description": "이화령 옛길 와인딩과 문경새재 코스의 정번 식사 스팟으로, 새재 관문 앞에서 1973년부터 이어온 약돌돼지 석쇠구이 노포예요. 직접 담근 고추장 양념을 발라 숯불에 구운 석쇠구이가 대표 메뉴예요.",
    "tags": [
      "맛집",
      "문경",
      "약돌돼지"
    ]
  },
  {
    "name": "까꾸네모리국수",
    "category": "restaurant",
    "address": "경상북도 포항시 남구 구룡포읍 호미로 239-13",
    "lat": 35.991430791746,
    "lng": 129.55620101828,
    "description": "감포에서 호미곶으로 이어지는 동해안 코스의 구룡포 명물로, 57년째 모리국수만 끓여온 원조집이에요. 생선과 콩나물을 넣어 얼큰한 모리국수는 2인분부터 주문되고 재료가 떨어지면 일찍 닫아요.",
    "tags": [
      "맛집",
      "구룡포",
      "모리국수"
    ]
  },
  {
    "name": "골막식당",
    "category": "restaurant",
    "address": "제주특별자치도 제주시 천수로 12",
    "lat": 33.5024686068256,
    "lng": 126.538410238903,
    "description": "제주 일주 라이딩의 첫 끼로 좋은 제주 시내 반백년 국수 노포예요. 돼지 사골과 멸치로 낸 육수에 수육을 올린 고기국수가 대표 메뉴로, 새벽 6시 반부터 열어 아침 라이딩 전에 들르기 좋아요.",
    "tags": [
      "맛집",
      "제주",
      "고기국수"
    ]
  },
  {
    "name": "산방식당",
    "category": "restaurant",
    "address": "제주특별자치도 서귀포시 대정읍 하모이삼로 62",
    "lat": 33.223362891958,
    "lng": 126.254198293055,
    "description": "송악산과 형제해안도로를 도는 제주 남서 코스의 거점 모슬포에서 1971년부터 이어온 밀면 노포예요. 쫄깃한 중면 밀면과 수육이 대표 메뉴고 바로 옆 공영주차장에 세우기 편해요. 수요일은 쉬어요.",
    "tags": [
      "맛집",
      "모슬포",
      "밀면"
    ]
  },
  {
    "name": "팔당초계국수 본점",
    "category": "restaurant",
    "address": "경기 남양주시 와부읍 다산로 43",
    "lat": 37.54107,
    "lng": 127.2547,
    "description": "차게 식힌 닭 육수에 식초와 겨자로 간을 맞춘 초계국수 전문점이에요. 도토리전병과 함께 먹는 조합으로 유명하고 TV에도 여러 번 소개됐어요. 팔당대교 건너 와부읍에 있어 라이딩족이 즐겨 찾아요.",
    "tags": [
      "맛집",
      "팔당",
      "초계국수"
    ]
  },
  {
    "name": "팔당원조칼제비 본점",
    "category": "restaurant",
    "address": "경기 하남시 미사동로40번길 178-35",
    "lat": 37.56287,
    "lng": 127.20756,
    "description": "칼국수와 수제비를 한 그릇에 담아내는 칼제비로 이름난 집이에요. 오만둥이와 굴 등 해산물을 넣은 시원한 국물이 특징이고 면은 매장에서 직접 뽑아요. 방송에 여러 번 소개돼 주말엔 웨이팅이 흔해요.",
    "tags": [
      "맛집",
      "미사",
      "칼제비",
      "칼국수"
    ]
  },
  {
    "name": "하남면옥",
    "category": "restaurant",
    "address": "경기 하남시 미사대로 622",
    "lat": 37.55269,
    "lng": 127.21165,
    "description": "사골 육수로 맛을 내는 물냉면과 비빔냉면이 대표 메뉴예요. 갈비탕과 손만두도 인기가 많아요. 미사경정공원 근처 미사대로변이라 미사리 코스를 돌다 들르기 편해요.",
    "tags": [
      "맛집",
      "미사",
      "냉면",
      "갈비탕"
    ]
  },
  {
    "name": "공가네 한우국밥전문점 하남점",
    "category": "restaurant",
    "address": "경기 하남시 미사대로 572",
    "lat": 37.55558,
    "lng": 127.20838,
    "description": "한우 고기와 사골을 가마솥에 끓여내는 한우국밥 전문점이에요. 맑은국밥과 얼큰국밥 중 취향대로 고를 수 있고 한우버섯불고기도 인기예요. 24시간 영업이라 이른 아침 미사리 라이딩 길에 들르기 좋아요.",
    "tags": [
      "맛집",
      "미사",
      "한우국밥",
      "24시간"
    ]
  }
]